settings = { 
    default_center: {lat: 51.498582, lng:-0.069128}, 
    default_zoom: 12,
    max_simultaneous_playback: 3,
    playback_pixel_radius: 250,
    solo_playback_pixel_radius:30, 
    music_markers: [
        {
            position: {lat:51.519542, lng:-0.102809},
            name: "1 Fabric",
            audio_file: "1 Fabric - Simian Mobile Disco - Cerulean.mp3"
        },
        {
            position: {lat:51.551584, lng:-0.075325},
            name: "2 Birthdays",
            audio_file: "2 Birthdays - Robb Bank$- Counting.mp3"
        },
        {
            position: {lat:51.541989, lng:-0.14736},
            name: "3 Proud Camden",
            audio_file: "3 Proud Camden -Artful Dodger -Movin' Too Fast [HQ MV + Lyrics].mp3"
        },
        {
            position: {lat:51.49765, lng:-0.099209},
            name: "4 Ministry of Sound",
            audio_file: "4 Ministry of Sound - Timmy Trumpet - Nightmare (Original Mix).mp3"
        },
        {
            position: {lat:51.501267, lng:-0.17754},
            name: "5 The Albert Hall",
            audio_file: "5 Albert Hall Eric Clapton- Wonderful Tonight (HQ).mp3"
        },
        {
            position: {lat:51.469856, lng:-0.067996},
            name: "6 Bussey Building",
            audio_file: "6 Bussey Building The Brothers Johnson - I'll Be Good To You 1976.mp3"
        },
        {
            position: {lat:51.530576, lng:-0.120704},
            name: "7 The Scala",
            audio_file: "7 Scala - Dog Is Dead - Teenage Daughter (Official Video).mp3"
        }
        ,
        {
            position: {lat:51.505776, lng:-0.116825},
            name: "8 Royal Festival Hall",
            audio_file: "8 Royal Festival Hall-Philharmonic Orchestra Symphony No.5.mp3"
        },
        {
            position: {lat:51.513283, lng:51.513283},
            name: "9 Royal Opera House",
            audio_file: "9 Royal Opera House -Król Roger - Mariusz Treliński - NINATEKA.PL - Opera.mp3"
        },
        {
            position: {lat:51.527081, lng:-0.063355},
            name: "10 Bethnal Green Working Men's Club",
            audio_file: "10 Bethnal Green working mens clubTOPS - Way To Be Loved (Official Video).mp3"
        },
        {
            position: {lat:51.519812, lng:-0.093919},
            name: "11 Barbican",
            audio_file: "11 Barbican - Chilingirian Quartet Haydn Opus 76 No 3.mp3"
        },
        {
            position: {lat:51.494747, lng:-0.098768},
            name: "12 Corronet Theatre",
            audio_file: "12 Coronet Theatre - The Maccabees - Toothpaste Kisses.mp3"
        },
        {
            position: {lat:51.543041, lng:-0.151312},
            name: "13 The Roundhouse",
            audio_file: "13 RoundHouse - Tyler The Creator - Yonkers.mp3"
        }                
    ]

}